[
  {
    "name": "Veronica",
    "age": 31,
    "location": "Koforidua",
    "imageUrl": "assets/images/home1.png",
    "latitude": 6.096675679320991,
    "longitude": -0.27971591814638747
  },
  {
    "name": "Danielle",
    "age": 26,
    "location": "Tamale",
    "imageUrl": "assets/images/home1.png",
    "latitude": 9.421774054223805,
    "longitude": -0.8666308389394627
  },
  {
    "name": "Angela",
    "age": 28,
    "location": "Bolgatanga",
    "imageUrl": "assets/images/home1.png",
    "latitude": 10.77869410667767,
    "longitude": -0.8532120269993407
  },
  {
    "name": "Gabrielle",
    "age": 31,
    "location": "Bolgatanga",
    "imageUrl": "assets/images/home1.png",
    "latitude": 10.776730264625552,
    "longitude": -0.8333518352055775
  },
  {
    "name": "Megan",
    "age": 35,
    "location": "Cape Coast",
    "imageUrl": "assets/images/home1.png",
    "latitude": 5.118696436596484,
    "longitude": -1.247787726551478
  },
  {
    "name": "Kimberly",
    "age": 20,
    "location": "Accra",
    "imageUrl": "assets/images/home1.png",
    "latitude": 5.579996313140368,
    "longitude": -0.21600158625119265
  },
  {
    "name": "Jeremy",
    "age": 24,
    "location": "Accra",
    "imageUrl": "assets/images/home1.png",
    "latitude": 5.570169328162381,
    "longitude": -0.19201553069136043
  },
  {
    "name": "Antonio",
    "age": 33,
    "location": "Accra",
    "imageUrl": "assets/images/home1.png",
    "latitude": 5.564853426263446,
    "longitude": -0.22045820232444377
  },
  {
    "name": "Leslie",
    "age": 26,
    "location": "Kumasi",
    "imageUrl": "assets/images/home1.png",
    "latitude": 6.691158783277201,
    "longitude": -1.6356814183637398
  },
  {
    "name": "Joseph",
    "age": 21,
    "location": "Ho",
    "imageUrl": "assets/images/home1.png",
    "latitude": 6.586711565734712,
    "longitude": 0.47098989975563726
  },
  {
    "name": "Jason",
    "age": 18,
    "location": "Tamale",
    "imageUrl": "assets/images/home1.png",
    "latitude": 9.425688830921363,
    "longitude": -0.8695760500136958
  },
  {
    "name": "Sherri",
    "age": 30,
    "location": "Cape Coast",
    "imageUrl": "assets/images/home1.png",
    "latitude": 5.108331869136497,
    "longitude": -1.230278953958102
  },
  {
    "name": "Nancy",
    "age": 25,
    "location": "Bolgatanga",
    "imageUrl": "assets/images/home1.png",
    "latitude": 10.803258823941652,
    "longitude": -0.8634668089163314
  },
  {
    "name": "Leonard",
    "age": 21,
    "location": "Kumasi",
    "imageUrl": "assets/images/home1.png",
    "latitude": 6.696487720099831,
    "longitude": -1.6323366925804934
  },
  {
    "name": "Diana",
    "age": 31,
    "location": "Koforidua",
    "imageUrl": "assets/images/home1.png",
    "latitude": 6.105405413854441,
    "longitude": -0.266911849387662
  },
  {
    "name": "Randall",
    "age": 18,
    "location": "Ho",
    "imageUrl": "assets/images/home1.png",
    "latitude": 6.582758269460785,
    "longitude": 0.4726017301622722
  },
  {
    "name": "Robin",
    "age": 29,
    "location": "Bolgatanga",
    "imageUrl": "assets/images/home1.png",
    "latitude": 10.798493236723603,
    "longitude": -0.8671784451742401
  },
  {
    "name": "Stephen",
    "age": 34,
    "location": "Wa",
    "imageUrl": "assets/images/home1.png",
    "latitude": 10.068992345748244,
    "longitude": -2.504480514199693
  },
  {
    "name": "Joseph",
    "age": 33,
    "location": "Cape Coast",
    "imageUrl": "assets/images/home1.png",
    "latitude": 5.109936494162142,
    "longitude": -1.2298152937238893
  },
  {
    "name": "John",
    "age": 26,
    "location": "Wa",
    "imageUrl": "assets/images/home1.png",
    "latitude": 10.058122979720157,
    "longitude": -2.4926589514277953
  },
  {
    "name": "Anna",
    "age": 20,
    "location": "Ho",
    "imageUrl": "assets/images/home1.png",
    "latitude": 6.614068526400773,
    "longitude": 0.47992924075562415
  },
  {
    "name": "Jose",
    "age": 32,
    "location": "Cape Coast",
    "imageUrl": "assets/images/home1.png",
    "latitude": 5.12056524736011,
    "longitude": -1.2568454624323617
  },
  {
    "name": "Brenda",
    "age": 18,
    "location": "Koforidua",
    "imageUrl": "assets/images/home1.png",
    "latitude": 6.098513268169221,
    "longitude": -0.2656404278348694
  },
  {
    "name": "Rachael",
    "age": 24,
    "location": "Wa",
    "imageUrl": "assets/images/home1.png",
    "latitude": 10.074738113452499,
    "longitude": -2.5146264057136922
  },
  {
    "name": "Reginald",
    "age": 26,
    "location": "Ho",
    "imageUrl": "assets/images/home1.png",
    "latitude": 6.611913294273124,
    "longitude": 0.46031355372657135
  },
  {
    "name": "Jeffrey",
    "age": 20,
    "location": "Sunyani",
    "imageUrl": "assets/images/home1.png",
    "latitude": 7.313706044577548,
    "longitude": -2.3153774968889187
  },
  {
    "name": "Whitney",
    "age": 25,
    "location": "Takoradi",
    "imageUrl": "assets/images/home1.png",
    "latitude": 4.913402986564168,
    "longitude": -1.7594568861260484
  },
  {
    "name": "William",
    "age": 18,
    "location": "Wa",
    "imageUrl": "assets/images/home1.png",
    "latitude": 10.066536115989638,
    "longitude": -2.5022671465968567
  },
  {
    "name": "Christopher",
    "age": 25,
    "location": "Kumasi",
    "imageUrl": "assets/images/home1.png",
    "latitude": 6.68036942325282,
    "longitude": -1.628223954852883
  },
  {
    "name": "Brandon",
    "age": 35,
    "location": "Cape Coast",
    "imageUrl": "assets/images/home1.png",
    "latitude": 5.1118584008638726,
    "longitude": -1.2518391819735584
  },
  {
    "name": "Daniel",
    "age": 35,
    "location": "Sunyani",
    "imageUrl": "assets/images/home1.png",
    "latitude": 7.327050295765848,
    "longitude": -2.3134347414416268
  },
  {
    "name": "Courtney",
    "age": 27,
    "location": "Ho",
    "imageUrl": "assets/images/home1.png",
    "latitude": 6.594072421104566,
    "longitude": 0.46484981051412716
  },
  {
    "name": "Laura",
    "age": 28,
    "location": "Cape Coast",
    "imageUrl": "assets/images/home1.png",
    "latitude": 5.09452152165194,
    "longitude": -1.237748626746957
  },
  {
    "name": "Robert",
    "age": 23,
    "location": "Kumasi",
    "imageUrl": "assets/images/home1.png",
    "latitude": 6.698315242545564,
    "longitude": -1.6063648975842626
  },
  {
    "name": "Bryan",
    "age": 34,
    "location": "Takoradi",
    "imageUrl": "assets/images/home1.png",
    "latitude": 4.893255385595144,
    "longitude": -1.7596320565114916
  },
  {
    "name": "Patrick",
    "age": 24,
    "location": "Koforidua",
    "imageUrl": "assets/images/home1.png",
    "latitude": 6.0854199481309985,
    "longitude": -0.27677895567636834
  },
  {
    "name": "Wendy",
    "age": 18,
    "location": "Cape Coast",
    "imageUrl": "assets/images/home1.png",
    "latitude": 5.0943993265393015,
    "longitude": -1.2594223382525838
  },
  {
    "name": "Allison",
    "age": 19,
    "location": "Sunyani",
    "imageUrl": "assets/images/home1.png",
    "latitude": 7.31836331839392,
    "longitude": -2.351479371960671
  },
  {
    "name": "Tasha",
    "age": 33,
    "location": "Sunyani",
    "imageUrl": "assets/images/home1.png",
    "latitude": 7.324985465782111,
    "longitude": -2.3155364154081703
  },
  {
    "name": "Michelle",
    "age": 33,
    "location": "Kumasi",
    "imageUrl": "assets/images/home1.png",
    "latitude": 6.703508789399941,
    "longitude": -1.6214374312149469
  },
  {
    "name": "Alexander",
    "age": 19,
    "location": "Wa",
    "imageUrl": "assets/images/home1.png",
    "latitude": 10.058318751925441,
    "longitude": -2.5145254531843966
  },
  {
    "name": "Jennifer",
    "age": 20,
    "location": "Cape Coast",
    "imageUrl": "assets/images/home1.png",
    "latitude": 5.122942543870724,
    "longitude": -1.2474908325093723
  },
  {
    "name": "Erin",
    "age": 19,
    "location": "Bolgatanga",
    "imageUrl": "assets/images/home1.png",
    "latitude": 10.785269862411644,
    "longitude": -0.8483191537411673
  },
  {
    "name": "Amanda",
    "age": 27,
    "location": "Tamale",
    "imageUrl": "assets/images/home1.png",
    "latitude": 9.393067903378945,
    "longitude": -0.8513864161166175
  },
  {
    "name": "Joseph",
    "age": 31,
    "location": "Kumasi",
    "imageUrl": "assets/images/home1.png",
    "latitude": 6.708356724908409,
    "longitude": -1.6396619375115415
  },
  {
    "name": "Danielle",
    "age": 34,
    "location": "Koforidua",
    "imageUrl": "assets/images/home1.png",
    "latitude": 6.097945073816401,
    "longitude": -0.256063265900109
  },
  {
    "name": "Daniel",
    "age": 31,
    "location": "Bolgatanga",
    "imageUrl": "assets/images/home1.png",
    "latitude": 10.783620578595551,
    "longitude": -0.8536911598392269
  },
  {
    "name": "Ryan",
    "age": 21,
    "location": "Cape Coast",
    "imageUrl": "assets/images/home1.png",
    "latitude": 5.108045178824969,
    "longitude": -1.2641907878250982
  },
  {
    "name": "Shawn",
    "age": 20,
    "location": "Takoradi",
    "imageUrl": "assets/images/home1.png",
    "latitude": 4.909620601216265,
    "longitude": -1.7684141549883996
  },
  {
    "name": "Stephanie",
    "age": 23,
    "location": "Tamale",
    "imageUrl": "assets/images/home1.png",
    "latitude": 9.396694607106987,
    "longitude": -0.8518203101768896
  },
  {
    "name": "Nancy",
    "age": 33,
    "location": "Accra",
    "imageUrl": "assets/images/home1.png",
    "latitude": 5.5563407029064,
    "longitude": -0.20242515456860924
  },
  {
    "name": "Jose",
    "age": 27,
    "location": "Cape Coast",
    "imageUrl": "assets/images/home1.png",
    "latitude": 5.086605594215237,
    "longitude": -1.2550758044162524
  },
  {
    "name": "Vincent",
    "age": 26,
    "location": "Wa",
    "imageUrl": "assets/images/home1.png",
    "latitude": 10.043547190406139,
    "longitude": -2.512563047753599
  },
  {
    "name": "Guy",
    "age": 31,
    "location": "Koforidua",
    "imageUrl": "assets/images/home1.png",
    "latitude": 6.100547321714135,
    "longitude": -0.24345326166217945
  },
  {
    "name": "Rita",
    "age": 26,
    "location": "Kumasi",
    "imageUrl": "assets/images/home1.png",
    "latitude": 6.690382495148423,
    "longitude": -1.618494611063901
  },
  {
    "name": "Monica",
    "age": 27,
    "location": "Tamale",
    "imageUrl": "assets/images/home1.png",
    "latitude": 9.389956393474232,
    "longitude": -0.8672630884311711
  },
  {
    "name": "Kenneth",
    "age": 27,
    "location": "Koforidua",
    "imageUrl": "assets/images/home1.png",
    "latitude": 6.104058308882785,
    "longitude": -0.2580317180272363
  },
  {
    "name": "Danielle",
    "age": 30,
    "location": "Wa",
    "imageUrl": "assets/images/home1.png",
    "latitude": 10.04567414632699,
    "longitude": -2.4943528803515163
  },
  {
    "name": "Chelsea",
    "age": 20,
    "location": "Cape Coast",
    "imageUrl": "assets/images/home1.png",
    "latitude": 5.105318887084716,
    "longitude": -1.2468481912261966
  },
  {
    "name": "Eric",
    "age": 28,
    "location": "Koforidua",
    "imageUrl": "assets/images/home1.png",
    "latitude": 6.075694431367345,
    "longitude": -0.26351885343356907
  }
]